{
  "type": "FeatureCollection",
  "name": "corridor_points_labeled",
  "crs": {
    "type": "name",
    "properties": {
      "name": "urn:ogc:def:crs:OGC:1.3:CRS84"
    }
  },
  "features": [
    {
      "type": "Feature",
      "properties": {
        "corridor_label_clean": "Madison St (Chinatown)",
        "is_top_corridor": false,
        "license_type": "Roadway"
      },
      "geometry": {
        "type": "Point",
        "coordinates": [
          -73.994055451454,
          40.712335300601985
        ]
      }
    },
    {
      "type": "Feature",
      "properties": {
        "corridor_label_clean": "Market St (Chinatown)",
        "is_top_corridor": false,
        "license_type": "Roadway"
      },
      "geometry": {
        "type": "Point",
        "coordinates": [
          -73.994383683473,
          40.712532940523985
        ]
      }
    },
    {
      "type": "Feature",
      "properties": {
        "corridor_label_clean": "Baxter St (Chinatown)",
        "is_top_corridor": false,
        "license_type": "Roadway"
      },
      "geometry": {
        "type": "Point",
        "coordinates": [
          -73.999953104394,
          40.716482800206
        ]
      }
    },
    {
      "type": "Feature",
      "properties": {
        "corridor_label_clean": "Baxter St (Chinatown)",
        "is_top_corridor": false,
        "license_type": "Roadway"
      },
      "geometry": {
        "type": "Point",
        "coordinates": [
          -73.99966090627102,
          40.71695764462001
        ]
      }
    },
    {
      "type": "Feature",
      "properties": {
        "corridor_label_clean": "Mulberry St (Little Italy / SoHo)",
        "is_top_corridor": true,
        "license_type": "Roadway"
      },
      "geometry": {
        "type": "Point",
        "coordinates": [
          -73.997759766673,
          40.71844803228801
        ]
      }
    },
    {
      "type": "Feature",
      "properties": {
        "corridor_label_clean": "Mulberry St (Little Italy / SoHo)",
        "is_top_corridor": true,
        "license_type": "Roadway"
      },
      "geometry": {
        "type": "Point",
        "coordinates": [
          -73.997694829896,
          40.718519394966016
        ]
      }
    },
    {
      "type": "Feature",
      "properties": {
        "corridor_label_clean": "Mulberry St (Little Italy / SoHo)",
        "is_top_corridor": true,
        "license_type": "Roadway"
      },
      "geometry": {
        "type": "Point",
        "coordinates": [
          -73.997655145358,
          40.718588013358016
        ]
      }
    },
    {
      "type": "Feature",
      "properties": {
        "corridor_label_clean": "Mulberry St (Little Italy / SoHo)",
        "is_top_corridor": true,
        "license_type": "Roadway"
      },
      "geometry": {
        "type": "Point",
        "coordinates": [
          -73.997510836423,
          40.718859742332
        ]
      }
    },
    {
      "type": "Feature",
      "properties": {
        "corridor_label_clean": "Mulberry St (Little Italy / SoHo)",
        "is_top_corridor": true,
        "license_type": "Roadway"
      },
      "geometry": {
        "type": "Point",
        "coordinates": [
          -73.997474758979,
          40.718928360738
        ]
      }
    },
    {
      "type": "Feature",
      "properties": {
        "corridor_label_clean": "Mulberry St (Little Italy / SoHo)",
        "is_top_corridor": true,
        "license_type": "Roadway"
      },
      "geometry": {
        "type": "Point",
        "coordinates": [
          -73.99709232615099,
          40.719823145948
        ]
      }
    },
    {
      "type": "Feature",
      "properties": {
        "corridor_label_clean": "John St (Financial District-Battery Park City)",
        "is_top_corridor": false,
        "license_type": "Roadway"
      },
      "geometry": {
        "type": "Point",
        "coordinates": [
          -74.00442555648999,
          40.70647254111401
        ]
      }
    },
    {
      "type": "Feature",
      "properties": {
        "corridor_label_clean": "John St (Financial District-Battery Park City)",
        "is_top_corridor": false,
        "license_type": "Roadway"
      },
      "geometry": {
        "type": "Point",
        "coordinates": [
          -74.00442555648999,
          40.70647254111401
        ]
      }
    },
    {
      "type": "Feature",
      "properties": {
        "corridor_label_clean": "South St (Financial District-Battery Park City)",
        "is_top_corridor": false,
        "license_type": "Roadway"
      },
      "geometry": {
        "type": "Point",
        "coordinates": [
          -74.00194408428298,
          40.706930986673
        ]
      }
    },
    {
      "type": "Feature",
      "properties": {
        "corridor_label_clean": "Beekman St (Financial District-Battery Park City)",
        "is_top_corridor": false,
        "license_type": "Roadway"
      },
      "geometry": {
        "type": "Point",
        "coordinates": [
          -74.00258971188799,
          40.707035275178
        ]
      }
    },
    {
      "type": "Feature",
      "properties": {
        "corridor_label_clean": "Front St (Financial District-Battery Park City)",
        "is_top_corridor": false,
        "license_type": "Roadway"
      },
      "geometry": {
        "type": "Point",
        "coordinates": [
          -74.002532013525,
          40.707326222106005
        ]
      }
    },
    {
      "type": "Feature",
      "properties": {
        "corridor_label_clean": "Fulton St (Financial District-Battery Park City)",
        "is_top_corridor": false,
        "license_type": "Sidewalk"
      },
      "geometry": {
        "type": "Point",
        "coordinates": [
          -74.004696191509,
          40.708229183248
        ]
      }
    },
    {
      "type": "Feature",
      "properties": {
        "corridor_label_clean": "Murray St (Civic Center)",
        "is_top_corridor": false,
        "license_type": "Roadway"
      },
      "geometry": {
        "type": "Point",
        "coordinates": [
          -74.00974673804399,
          40.71421246245
        ]
      }
    },
    {
      "type": "Feature",
      "properties": {
        "corridor_label_clean": "Reade St (Civic Center)",
        "is_top_corridor": false,
        "license_type": "Sidewalk"
      },
      "geometry": {
        "type": "Point",
        "coordinates": [
          -74.00707027995398,
          40.715219988793024
        ]
      }
    },
    {
      "type": "Feature",
      "properties": {
        "corridor_label_clean": "Duane St (Civic Center)",
        "is_top_corridor": false,
        "license_type": "Sidewalk"
      },
      "geometry": {
        "type": "Point",
        "coordinates": [
          -74.008015534265,
          40.716424879968
        ]
      }
    },
    {
      "type": "Feature",
      "properties": {
        "corridor_label_clean": "Canal St (Chinatown)",
        "is_top_corridor": false,
        "license_type": "Roadway"
      },
      "geometry": {
        "type": "Point",
        "coordinates": [
          -73.99046605311,
          40.714459509526016
        ]
      }
    },
    {
      "type": "Feature",
      "properties": {
        "corridor_label_clean": "Canal St (Chinatown)",
        "is_top_corridor": false,
        "license_type": "Roadway"
      },
      "geometry": {
        "type": "Point",
        "coordinates": [
          -73.99046605311,
          40.714459509526016
        ]
      }
    },
    {
      "type": "Feature",
      "properties": {
        "corridor_label_clean": "Canal St (Chinatown)",
        "is_top_corridor": false,
        "license_type": "Roadway"
      },
      "geometry": {
        "type": "Point",
        "coordinates": [
          -73.991072044326,
          40.714651692112994
        ]
      }
    },
    {
      "type": "Feature",
      "properties": {
        "corridor_label_clean": "Canal St (Chinatown)",
        "is_top_corridor": false,
        "license_type": "Roadway"
      },
      "geometry": {
        "type": "Point",
        "coordinates": [
          -73.991393077194,
          40.71475052832901
        ]
      }
    },
    {
      "type": "Feature",
      "properties": {
        "corridor_label_clean": "Canal St (Chinatown)",
        "is_top_corridor": false,
        "license_type": "Roadway"
      },
      "geometry": {
        "type": "Point",
        "coordinates": [
          -73.99162393318798,
          40.714819164638996
        ]
      }
    },
    {
      "type": "Feature",
      "properties": {
        "corridor_label_clean": "Canal St (Chinatown)",
        "is_top_corridor": false,
        "license_type": "Sidewalk"
      },
      "geometry": {
        "type": "Point",
        "coordinates": [
          -73.991970220231,
          40.714904277236016
        ]
      }
    },
    {
      "type": "Feature",
      "properties": {
        "corridor_label_clean": "Orchard St (Chinatown)",
        "is_top_corridor": false,
        "license_type": "Roadway"
      },
      "geometry": {
        "type": "Point",
        "coordinates": [
          -73.991714065461,
          40.715214417866015
        ]
      }
    },
    {
      "type": "Feature",
      "properties": {
        "corridor_label_clean": "Canal St (Chinatown)",
        "is_top_corridor": false,
        "license_type": "Sidewalk"
      },
      "geometry": {
        "type": "Point",
        "coordinates": [
          -73.994138128762,
          40.71558236637198
        ]
      }
    },
    {
      "type": "Feature",
      "properties": {
        "corridor_label_clean": "Orchard St (Lower East Side)",
        "is_top_corridor": false,
        "license_type": "Roadway"
      },
      "geometry": {
        "type": "Point",
        "coordinates": [
          -73.990295998751,
          40.717975543539005
        ]
      }
    },
    {
      "type": "Feature",
      "properties": {
        "corridor_label_clean": "West Broadway (Civic Center)",
        "is_top_corridor": false,
        "license_type": "Sidewalk"
      },
      "geometry": {
        "type": "Point",
        "coordinates": [
          -74.00797335151998,
          40.71670450303498
        ]
      }
    },
    {
      "type": "Feature",
      "properties": {
        "corridor_label_clean": "West Broadway (Civic Center)",
        "is_top_corridor": false,
        "license_type": "Roadway"
      },
      "geometry": {
        "type": "Point",
        "coordinates": [
          -74.008048068297,
          40.716984810414
        ]
      }
    },
    {
      "type": "Feature",
      "properties": {
        "corridor_label_clean": "Duane St (Civic Center)",
        "is_top_corridor": false,
        "license_type": "Roadway"
      },
      "geometry": {
        "type": "Point",
        "coordinates": [
          -74.010245027189,
          40.717396350423
        ]
      }
    },
    {
      "type": "Feature",
      "properties": {
        "corridor_label_clean": "Duane St (Civic Center)",
        "is_top_corridor": false,
        "license_type": "Roadway"
      },
      "geometry": {
        "type": "Point",
        "coordinates": [
          -74.01025945977301,
          40.71741556251
        ]
      }
    },
    {
      "type": "Feature",
      "properties": {
        "corridor_label_clean": "Leonard St (Civic Center)",
        "is_top_corridor": false,
        "license_type": "Roadway"
      },
      "geometry": {
        "type": "Point",
        "coordinates": [
          -74.007348393635,
          40.718406647231
        ]
      }
    },
    {
      "type": "Feature",
      "properties": {
        "corridor_label_clean": "Harrison St (Civic Center)",
        "is_top_corridor": false,
        "license_type": "Roadway"
      },
      "geometry": {
        "type": "Point",
        "coordinates": [
          -74.010032397316,
          40.718766008442984
        ]
      }
    },
    {
      "type": "Feature",
      "properties": {
        "corridor_label_clean": "West Broadway (Civic Center)",
        "is_top_corridor": false,
        "license_type": "Sidewalk"
      },
      "geometry": {
        "type": "Point",
        "coordinates": [
          -74.00588749086101,
          40.719737943896014
        ]
      }
    },
    {
      "type": "Feature",
      "properties": {
        "corridor_label_clean": "North Moore St (Civic Center)",
        "is_top_corridor": false,
        "license_type": "Roadway"
      },
      "geometry": {
        "type": "Point",
        "coordinates": [
          -74.007074374166,
          40.71979002741201
        ]
      }
    },
    {
      "type": "Feature",
      "properties": {
        "corridor_label_clean": "North Moore St (Civic Center)",
        "is_top_corridor": false,
        "license_type": "Sidewalk"
      },
      "geometry": {
        "type": "Point",
        "coordinates": [
          -74.00984500380498,
          40.72008351317799
        ]
      }
    },
    {
      "type": "Feature",
      "properties": {
        "corridor_label_clean": "Mulberry St (Little Italy / SoHo)",
        "is_top_corridor": true,
        "license_type": "Roadway"
      },
      "geometry": {
        "type": "Point",
        "coordinates": [
          -73.997110363591,
          40.71982863593899
        ]
      }
    },
    {
      "type": "Feature",
      "properties": {
        "corridor_label_clean": "Mulberry St (Little Italy / SoHo)",
        "is_top_corridor": true,
        "license_type": "Roadway"
      },
      "geometry": {
        "type": "Point",
        "coordinates": [
          -73.997077892142,
          40.71991097814402
        ]
      }
    },
    {
      "type": "Feature",
      "properties": {
        "corridor_label_clean": "Mulberry St (Little Italy / SoHo)",
        "is_top_corridor": true,
        "license_type": "Roadway"
      },
      "geometry": {
        "type": "Point",
        "coordinates": [
          -73.997012949003,
          40.72007566252502
        ]
      }
    },
    {
      "type": "Feature",
      "properties": {
        "corridor_label_clean": "Centre St (Little Italy / SoHo)",
        "is_top_corridor": false,
        "license_type": "Roadway"
      },
      "geometry": {
        "type": "Point",
        "coordinates": [
          -73.99819982981498,
          40.720185477997006
        ]
      }
    },
    {
      "type": "Feature",
      "properties": {
        "corridor_label_clean": "Broome St (Little Italy / SoHo)",
        "is_top_corridor": false,
        "license_type": "Roadway"
      },
      "geometry": {
        "type": "Point",
        "coordinates": [
          -73.996136306805,
          40.720207385185006
        ]
      }
    },
    {
      "type": "Feature",
      "properties": {
        "corridor_label_clean": "Mulberry St (Little Italy / SoHo)",
        "is_top_corridor": true,
        "license_type": "Roadway"
      },
      "geometry": {
        "type": "Point",
        "coordinates": [
          -73.996915533689,
          40.72032268902303
        ]
      }
    },
    {
      "type": "Feature",
      "properties": {
        "corridor_label_clean": "Broome St (Little Italy / SoHo)",
        "is_top_corridor": false,
        "license_type": "Roadway"
      },
      "geometry": {
        "type": "Point",
        "coordinates": [
          -73.996908308594,
          40.720536780692
        ]
      }
    },
    {
      "type": "Feature",
      "properties": {
        "corridor_label_clean": "Grand St (Little Italy / SoHo)",
        "is_top_corridor": false,
        "license_type": "Roadway"
      },
      "geometry": {
        "type": "Point",
        "coordinates": [
          -74.00021284708399,
          40.72059446228101
        ]
      }
    },
    {
      "type": "Feature",
      "properties": {
        "corridor_label_clean": "Mulberry St (Little Italy / SoHo)",
        "is_top_corridor": true,
        "license_type": "Roadway"
      },
      "geometry": {
        "type": "Point",
        "coordinates": [
          -73.99670626834998,
          40.720860657621984
        ]
      }
    },
    {
      "type": "Feature",
      "properties": {
        "corridor_label_clean": "Mott St (Little Italy / SoHo)",
        "is_top_corridor": false,
        "license_type": "Roadway"
      },
      "geometry": {
        "type": "Point",
        "coordinates": [
          -73.99557345439798,
          40.72131076133899
        ]
      }
    },
    {
      "type": "Feature",
      "properties": {
        "corridor_label_clean": "Broome St (Lower East Side)",
        "is_top_corridor": false,
        "license_type": "Roadway"
      },
      "geometry": {
        "type": "Point",
        "coordinates": [
          -73.989971321275,
          40.718030410966996
        ]
      }
    },
    {
      "type": "Feature",
      "properties": {
        "corridor_label_clean": "Chrystie St (Lower East Side)",
        "is_top_corridor": false,
        "license_type": "Roadway"
      },
      "geometry": {
        "type": "Point",
        "coordinates": [
          -73.99234105840999,
          40.72106356197599
        ]
      }
    },
    {
      "type": "Feature",
      "properties": {
        "corridor_label_clean": "Chrystie St (Lower East Side)",
        "is_top_corridor": false,
        "license_type": "Roadway"
      },
      "geometry": {
        "type": "Point",
        "coordinates": [
          -73.99234105840999,
          40.72106356197599
        ]
      }
    },
    {
      "type": "Feature",
      "properties": {
        "corridor_label_clean": "Bowery (Lower East Side)",
        "is_top_corridor": false,
        "license_type": "Sidewalk"
      },
      "geometry": {
        "type": "Point",
        "coordinates": [
          -73.993701117259,
          40.72114324298699
        ]
      }
    },
    {
      "type": "Feature",
      "properties": {
        "corridor_label_clean": "Stanton St (Lower East Side)",
        "is_top_corridor": false,
        "license_type": "Sidewalk"
      },
      "geometry": {
        "type": "Point",
        "coordinates": [
          -73.988809132558,
          40.72155184031701
        ]
      }
    },
    {
      "type": "Feature",
      "properties": {
        "corridor_label_clean": "Eldridge St (Lower East Side)",
        "is_top_corridor": false,
        "license_type": "Roadway"
      },
      "geometry": {
        "type": "Point",
        "coordinates": [
          -73.989840796629,
          40.72232321591502
        ]
      }
    },
    {
      "type": "Feature",
      "properties": {
        "corridor_label_clean": "1st Ave (East Village)",
        "is_top_corridor": false,
        "license_type": "Roadway"
      },
      "geometry": {
        "type": "Point",
        "coordinates": [
          -73.988292903674,
          40.723467636190996
        ]
      }
    },
    {
      "type": "Feature",
      "properties": {
        "corridor_label_clean": "1st Ave (East Village)",
        "is_top_corridor": false,
        "license_type": "Roadway"
      },
      "geometry": {
        "type": "Point",
        "coordinates": [
          -73.988256817111,
          40.72351978307201
        ]
      }
    },
    {
      "type": "Feature",
      "properties": {
        "corridor_label_clean": "East 1st St (East Village)",
        "is_top_corridor": false,
        "license_type": "Sidewalk"
      },
      "geometry": {
        "type": "Point",
        "coordinates": [
          -73.991734535477,
          40.72464269599902
        ]
      }
    },
    {
      "type": "Feature",
      "properties": {
        "corridor_label_clean": "Bowery (East Village)",
        "is_top_corridor": false,
        "license_type": "Roadway"
      },
      "geometry": {
        "type": "Point",
        "coordinates": [
          -73.99201220280499,
          40.72574885656002
        ]
      }
    },
    {
      "type": "Feature",
      "properties": {
        "corridor_label_clean": "East 11th St (East Village)",
        "is_top_corridor": false,
        "license_type": "Roadway"
      },
      "geometry": {
        "type": "Point",
        "coordinates": [
          -73.97767785927398,
          40.726713120350034
        ]
      }
    },
    {
      "type": "Feature",
      "properties": {
        "corridor_label_clean": "Ave B (East Village)",
        "is_top_corridor": false,
        "license_type": "Roadway"
      },
      "geometry": {
        "type": "Point",
        "coordinates": [
          -73.979153119564,
          40.72790737121001
        ]
      }
    },
    {
      "type": "Feature",
      "properties": {
        "corridor_label_clean": "East 11th St (East Village)",
        "is_top_corridor": false,
        "license_type": "Roadway"
      },
      "geometry": {
        "type": "Point",
        "coordinates": [
          -73.98128173815302,
          40.72821515210701
        ]
      }
    },
    {
      "type": "Feature",
      "properties": {
        "corridor_label_clean": "Ave B (East Village)",
        "is_top_corridor": false,
        "license_type": "Sidewalk"
      },
      "geometry": {
        "type": "Point",
        "coordinates": [
          -73.983361472813,
          40.722105622377
        ]
      }
    },
    {
      "type": "Feature",
      "properties": {
        "corridor_label_clean": "East 2nd St (East Village)",
        "is_top_corridor": false,
        "license_type": "Roadway"
      },
      "geometry": {
        "type": "Point",
        "coordinates": [
          -73.98517958566899,
          40.72276736058801
        ]
      }
    },
    {
      "type": "Feature",
      "properties": {
        "corridor_label_clean": "East 3rd St (East Village)",
        "is_top_corridor": false,
        "license_type": "Roadway"
      },
      "geometry": {
        "type": "Point",
        "coordinates": [
          -73.983545261413,
          40.72292084471501
        ]
      }
    },
    {
      "type": "Feature",
      "properties": {
        "corridor_label_clean": "East 4th St (East Village)",
        "is_top_corridor": false,
        "license_type": "Roadway"
      },
      "geometry": {
        "type": "Point",
        "coordinates": [
          -73.98362081868899,
          40.723749775135
        ]
      }
    },
    {
      "type": "Feature",
      "properties": {
        "corridor_label_clean": "East 5th St (East Village)",
        "is_top_corridor": false,
        "license_type": "Roadway"
      },
      "geometry": {
        "type": "Point",
        "coordinates": [
          -73.983461903371,
          40.72444966784999
        ]
      }
    },
    {
      "type": "Feature",
      "properties": {
        "corridor_label_clean": "1st Ave (East Village)",
        "is_top_corridor": false,
        "license_type": "Roadway"
      },
      "geometry": {
        "type": "Point",
        "coordinates": [
          -73.987253599144,
          40.724911272685
        ]
      }
    },
    {
      "type": "Feature",
      "properties": {
        "corridor_label_clean": "East 6th St (East Village)",
        "is_top_corridor": false,
        "license_type": "Roadway"
      },
      "geometry": {
        "type": "Point",
        "coordinates": [
          -73.983407588992,
          40.72524015278199
        ]
      }
    },
    {
      "type": "Feature",
      "properties": {
        "corridor_label_clean": "East 7th St (East Village)",
        "is_top_corridor": false,
        "license_type": "Roadway"
      },
      "geometry": {
        "type": "Point",
        "coordinates": [
          -73.981693863648,
          40.725261850203
        ]
      }
    },
    {
      "type": "Feature",
      "properties": {
        "corridor_label_clean": "East 6th St (East Village)",
        "is_top_corridor": false,
        "license_type": "Roadway"
      },
      "geometry": {
        "type": "Point",
        "coordinates": [
          -73.98350498949299,
          40.725284083095005
        ]
      }
    },
    {
      "type": "Feature",
      "properties": {
        "corridor_label_clean": "Ave A (East Village)",
        "is_top_corridor": false,
        "license_type": "Roadway"
      },
      "geometry": {
        "type": "Point",
        "coordinates": [
          -73.983649157445,
          40.725874228517995
        ]
      }
    },
    {
      "type": "Feature",
      "properties": {
        "corridor_label_clean": "Ave A (East Village)",
        "is_top_corridor": false,
        "license_type": "Roadway"
      },
      "geometry": {
        "type": "Point",
        "coordinates": [
          -73.98364915000899,
          40.725904420946996
        ]
      }
    },
    {
      "type": "Feature",
      "properties": {
        "corridor_label_clean": "Ave A (East Village)",
        "is_top_corridor": false,
        "license_type": "Roadway"
      },
      "geometry": {
        "type": "Point",
        "coordinates": [
          -73.983475912993,
          40.72614319079101
        ]
      }
    },
    {
      "type": "Feature",
      "properties": {
        "corridor_label_clean": "Ave A (East Village)",
        "is_top_corridor": false,
        "license_type": "Roadway"
      },
      "geometry": {
        "type": "Point",
        "coordinates": [
          -73.983475912993,
          40.72614319079101
        ]
      }
    },
    {
      "type": "Feature",
      "properties": {
        "corridor_label_clean": "East 7th St (East Village)",
        "is_top_corridor": false,
        "license_type": "Roadway"
      },
      "geometry": {
        "type": "Point",
        "coordinates": [
          -73.985402368383,
          40.726835133231
        ]
      }
    },
    {
      "type": "Feature",
      "properties": {
        "corridor_label_clean": "1st Ave (East Village)",
        "is_top_corridor": false,
        "license_type": "Roadway"
      },
      "geometry": {
        "type": "Point",
        "coordinates": [
          -73.985485247847,
          40.727304498751
        ]
      }
    },
    {
      "type": "Feature",
      "properties": {
        "corridor_label_clean": "Ave A (East Village)",
        "is_top_corridor": false,
        "license_type": "Roadway"
      },
      "geometry": {
        "type": "Point",
        "coordinates": [
          -73.98255917997498,
          40.727405647500994
        ]
      }
    },
    {
      "type": "Feature",
      "properties": {
        "corridor_label_clean": "Bond St (Greenwich Village)",
        "is_top_corridor": false,
        "license_type": "Roadway"
      },
      "geometry": {
        "type": "Point",
        "coordinates": [
          -73.992629129726,
          40.725899860012014
        ]
      }
    },
    {
      "type": "Feature",
      "properties": {
        "corridor_label_clean": "Bond St (Greenwich Village)",
        "is_top_corridor": false,
        "license_type": "Roadway"
      },
      "geometry": {
        "type": "Point",
        "coordinates": [
          -73.99288527526899,
          40.72602064590399
        ]
      }
    },
    {
      "type": "Feature",
      "properties": {
        "corridor_label_clean": "East 3rd St (East Village)",
        "is_top_corridor": false,
        "license_type": "Roadway"
      },
      "geometry": {
        "type": "Point",
        "coordinates": [
          -73.991380768535,
          40.726204442053984
        ]
      }
    },
    {
      "type": "Feature",
      "properties": {
        "corridor_label_clean": "2nd Ave (East Village)",
        "is_top_corridor": false,
        "license_type": "Roadway"
      },
      "geometry": {
        "type": "Point",
        "coordinates": [
          -73.98890925894199,
          40.726862973589995
        ]
      }
    },
    {
      "type": "Feature",
      "properties": {
        "corridor_label_clean": "East 6th St (East Village)",
        "is_top_corridor": false,
        "license_type": "Roadway"
      },
      "geometry": {
        "type": "Point",
        "coordinates": [
          -73.98759955741798,
          40.72700831208002
        ]
      }
    },
    {
      "type": "Feature",
      "properties": {
        "corridor_label_clean": "East 5th St (East Village)",
        "is_top_corridor": false,
        "license_type": "Roadway"
      },
      "geometry": {
        "type": "Point",
        "coordinates": [
          -73.990723950969,
          40.72751364425401
        ]
      }
    },
    {
      "type": "Feature",
      "properties": {
        "corridor_label_clean": "2nd Ave (East Village)",
        "is_top_corridor": false,
        "license_type": "Sidewalk"
      },
      "geometry": {
        "type": "Point",
        "coordinates": [
          -73.987851866135,
          40.728353274395005
        ]
      }
    },
    {
      "type": "Feature",
      "properties": {
        "corridor_label_clean": "3rd Ave (East Village)",
        "is_top_corridor": false,
        "license_type": "Roadway"
      },
      "geometry": {
        "type": "Point",
        "coordinates": [
          -73.988840014972,
          40.730988349684004
        ]
      }
    },
    {
      "type": "Feature",
      "properties": {
        "corridor_label_clean": "3rd Ave (East Village)",
        "is_top_corridor": false,
        "license_type": "Roadway"
      },
      "geometry": {
        "type": "Point",
        "coordinates": [
          -73.988840014972,
          40.730988349684004
        ]
      }
    },
    {
      "type": "Feature",
      "properties": {
        "corridor_label_clean": "3rd Ave (East Village)",
        "is_top_corridor": false,
        "license_type": "Sidewalk"
      },
      "geometry": {
        "type": "Point",
        "coordinates": [
          -73.988248134302,
          40.731808975350006
        ]
      }
    },
    {
      "type": "Feature",
      "properties": {
        "corridor_label_clean": "3rd Ave (East Village)",
        "is_top_corridor": false,
        "license_type": "Sidewalk"
      },
      "geometry": {
        "type": "Point",
        "coordinates": [
          -73.988248134302,
          40.731808975350006
        ]
      }
    },
    {
      "type": "Feature",
      "properties": {
        "corridor_label_clean": "University Pl (Greenwich Village)",
        "is_top_corridor": false,
        "license_type": "Roadway"
      },
      "geometry": {
        "type": "Point",
        "coordinates": [
          -73.992707612722,
          40.73400241260001
        ]
      }
    },
    {
      "type": "Feature",
      "properties": {
        "corridor_label_clean": "East 10th St (East Village)",
        "is_top_corridor": false,
        "license_type": "Roadway"
      },
      "geometry": {
        "type": "Point",
        "coordinates": [
          -73.981873589705,
          40.727699231169005
        ]
      }
    },
    {
      "type": "Feature",
      "properties": {
        "corridor_label_clean": "2nd Ave (East Village)",
        "is_top_corridor": false,
        "license_type": "Sidewalk"
      },
      "geometry": {
        "type": "Point",
        "coordinates": [
          -73.987599246192,
          40.728674384956996
        ]
      }
    },
    {
      "type": "Feature",
      "properties": {
        "corridor_label_clean": "East 9th St (East Village)",
        "is_top_corridor": false,
        "license_type": "Roadway"
      },
      "geometry": {
        "type": "Point",
        "coordinates": [
          -73.98678377101399,
          40.728992686718996
        ]
      }
    },
    {
      "type": "Feature",
      "properties": {
        "corridor_label_clean": "2nd Ave (East Village)",
        "is_top_corridor": false,
        "license_type": "Sidewalk"
      },
      "geometry": {
        "type": "Point",
        "coordinates": [
          -73.986314421583,
          40.730472060292016
        ]
      }
    },
    {
      "type": "Feature",
      "properties": {
        "corridor_label_clean": "2nd Ave (East Village)",
        "is_top_corridor": false,
        "license_type": "Sidewalk"
      },
      "geometry": {
        "type": "Point",
        "coordinates": [
          -73.98561785567799,
          40.731394216196016
        ]
      }
    },
    {
      "type": "Feature",
      "properties": {
        "corridor_label_clean": "2nd Ave (East Village)",
        "is_top_corridor": false,
        "license_type": "Sidewalk"
      },
      "geometry": {
        "type": "Point",
        "coordinates": [
          -73.985336324858,
          40.73181961914399
        ]
      }
    },
    {
      "type": "Feature",
      "properties": {
        "corridor_label_clean": "East 14th St (East Village)",
        "is_top_corridor": false,
        "license_type": "Sidewalk"
      },
      "geometry": {
        "type": "Point",
        "coordinates": [
          -73.986328346398,
          40.73293686099398
        ]
      }
    },
    {
      "type": "Feature",
      "properties": {
        "corridor_label_clean": "Irving Pl (Gramercy)",
        "is_top_corridor": false,
        "license_type": "Sidewalk"
      },
      "geometry": {
        "type": "Point",
        "coordinates": [
          -73.98731642956001,
          40.735956215416
        ]
      }
    },
    {
      "type": "Feature",
      "properties": {
        "corridor_label_clean": "Irving Pl (Gramercy)",
        "is_top_corridor": false,
        "license_type": "Sidewalk"
      },
      "geometry": {
        "type": "Point",
        "coordinates": [
          -73.98731642956001,
          40.735956215416
        ]
      }
    },
    {
      "type": "Feature",
      "properties": {
        "corridor_label_clean": "East 18th St (Gramercy)",
        "is_top_corridor": false,
        "license_type": "Sidewalk"
      },
      "geometry": {
        "type": "Point",
        "coordinates": [
          -73.98668487807,
          40.73635138988
        ]
      }
    },
    {
      "type": "Feature",
      "properties": {
        "corridor_label_clean": "Ave A (East Village)",
        "is_top_corridor": false,
        "license_type": "Roadway"
      },
      "geometry": {
        "type": "Point",
        "coordinates": [
          -73.980772548624,
          40.729812521522
        ]
      }
    },
    {
      "type": "Feature",
      "properties": {
        "corridor_label_clean": "2nd Ave (Murray Hill)",
        "is_top_corridor": false,
        "license_type": "Sidewalk"
      },
      "geometry": {
        "type": "Point",
        "coordinates": [
          -73.978243046895,
          40.74154868154799
        ]
      }
    },
    {
      "type": "Feature",
      "properties": {
        "corridor_label_clean": "East 27th St (Gramercy)",
        "is_top_corridor": false,
        "license_type": "Roadway"
      },
      "geometry": {
        "type": "Point",
        "coordinates": [
          -73.981452171682,
          40.74169539881
        ]
      }
    },
    {
      "type": "Feature",
      "properties": {
        "corridor_label_clean": "3rd Ave (Murray Hill)",
        "is_top_corridor": false,
        "license_type": "Sidewalk"
      },
      "geometry": {
        "type": "Point",
        "coordinates": [
          -73.980335770722,
          40.742668922543004
        ]
      }
    },
    {
      "type": "Feature",
      "properties": {
        "corridor_label_clean": "2nd Ave (Murray Hill)",
        "is_top_corridor": false,
        "license_type": "Roadway"
      },
      "geometry": {
        "type": "Point",
        "coordinates": [
          -73.976867504059,
          40.74333250822099
        ]
      }
    },
    {
      "type": "Feature",
      "properties": {
        "corridor_label_clean": "3rd Ave (Murray Hill)",
        "is_top_corridor": false,
        "license_type": "Roadway"
      },
      "geometry": {
        "type": "Point",
        "coordinates": [
          -73.978440319063,
          40.745265127216
        ]
      }
    },
    {
      "type": "Feature",
      "properties": {
        "corridor_label_clean": "East 34th St (Murray Hill)",
        "is_top_corridor": false,
        "license_type": "Sidewalk"
      },
      "geometry": {
        "type": "Point",
        "coordinates": [
          -73.980821742973,
          40.746865746166996
        ]
      }
    },
    {
      "type": "Feature",
      "properties": {
        "corridor_label_clean": "Madison Ave (Midtown)",
        "is_top_corridor": false,
        "license_type": "Sidewalk"
      },
      "geometry": {
        "type": "Point",
        "coordinates": [
          -73.981380276359,
          40.749939970847976
        ]
      }
    },
    {
      "type": "Feature",
      "properties": {
        "corridor_label_clean": "Park Ave Tunnel (Murray Hill)",
        "is_top_corridor": false,
        "license_type": "Roadway"
      },
      "geometry": {
        "type": "Point",
        "coordinates": [
          -73.978665921568,
          40.750738223690014
        ]
      }
    },
    {
      "type": "Feature",
      "properties": {
        "corridor_label_clean": "East 22nd St (Gramercy)",
        "is_top_corridor": false,
        "license_type": "Sidewalk"
      },
      "geometry": {
        "type": "Point",
        "coordinates": [
          -73.986290955574,
          40.73927177208299
        ]
      }
    },
    {
      "type": "Feature",
      "properties": {
        "corridor_label_clean": "Park Ave South (Gramercy)",
        "is_top_corridor": false,
        "license_type": "Roadway"
      },
      "geometry": {
        "type": "Point",
        "coordinates": [
          -73.985316119962,
          40.74160195535299
        ]
      }
    },
    {
      "type": "Feature",
      "properties": {
        "corridor_label_clean": "East 27th St (Gramercy)",
        "is_top_corridor": false,
        "license_type": "Roadway"
      },
      "geometry": {
        "type": "Point",
        "coordinates": [
          -73.983089386167,
          40.742205496564
        ]
      }
    },
    {
      "type": "Feature",
      "properties": {
        "corridor_label_clean": "5th Ave (Midtown)",
        "is_top_corridor": false,
        "license_type": "Roadway"
      },
      "geometry": {
        "type": "Point",
        "coordinates": [
          -73.98716676789199,
          40.744835507503
        ]
      }
    },
    {
      "type": "Feature",
      "properties": {
        "corridor_label_clean": "5th Ave (Midtown)",
        "is_top_corridor": false,
        "license_type": "Sidewalk"
      },
      "geometry": {
        "type": "Point",
        "coordinates": [
          -73.985596429598,
          40.746995448707
        ]
      }
    },
    {
      "type": "Feature",
      "properties": {
        "corridor_label_clean": "West 32nd St (Midtown)",
        "is_top_corridor": false,
        "license_type": "Roadway"
      },
      "geometry": {
        "type": "Point",
        "coordinates": [
          -73.98695326895,
          40.74775590996001
        ]
      }
    },
    {
      "type": "Feature",
      "properties": {
        "corridor_label_clean": "West 33rd St (Midtown)",
        "is_top_corridor": false,
        "license_type": "Sidewalk"
      },
      "geometry": {
        "type": "Point",
        "coordinates": [
          -73.985462691098,
          40.747931395517
        ]
      }
    },
    {
      "type": "Feature",
      "properties": {
        "corridor_label_clean": "Greenwich St (Civic Center)",
        "is_top_corridor": false,
        "license_type": "Sidewalk"
      },
      "geometry": {
        "type": "Point",
        "coordinates": [
          -74.010036320129,
          40.72085203149
        ]
      }
    },
    {
      "type": "Feature",
      "properties": {
        "corridor_label_clean": "West Broadway (Little Italy / SoHo)",
        "is_top_corridor": false,
        "license_type": "Roadway"
      },
      "geometry": {
        "type": "Point",
        "coordinates": [
          -74.00400811012899,
          40.722106759214014
        ]
      }
    },
    {
      "type": "Feature",
      "properties": {
        "corridor_label_clean": "Grand St (Little Italy / SoHo)",
        "is_top_corridor": false,
        "license_type": "Roadway"
      },
      "geometry": {
        "type": "Point",
        "coordinates": [
          -74.00351386799,
          40.72224401377599
        ]
      }
    },
    {
      "type": "Feature",
      "properties": {
        "corridor_label_clean": "West Broadway (Little Italy / SoHo)",
        "is_top_corridor": false,
        "license_type": "Roadway"
      },
      "geometry": {
        "type": "Point",
        "coordinates": [
          -74.003124280993,
          40.72311686095502
        ]
      }
    },
    {
      "type": "Feature",
      "properties": {
        "corridor_label_clean": "Spring St (Little Italy / SoHo)",
        "is_top_corridor": false,
        "license_type": "Roadway"
      },
      "geometry": {
        "type": "Point",
        "coordinates": [
          -74.00315323801,
          40.72512328461299
        ]
      }
    },
    {
      "type": "Feature",
      "properties": {
        "corridor_label_clean": "Spring St (Little Italy / SoHo)",
        "is_top_corridor": false,
        "license_type": "Sidewalk"
      },
      "geometry": {
        "type": "Point",
        "coordinates": [
          -74.00326869121,
          40.72518092147702
        ]
      }
    },
    {
      "type": "Feature",
      "properties": {
        "corridor_label_clean": "Sullivan St (Little Italy / SoHo)",
        "is_top_corridor": false,
        "license_type": "Sidewalk"
      },
      "geometry": {
        "type": "Point",
        "coordinates": [
          -74.00313521781598,
          40.72552402100698
        ]
      }
    },
    {
      "type": "Feature",
      "properties": {
        "corridor_label_clean": "Thompson St (Little Italy / SoHo)",
        "is_top_corridor": false,
        "license_type": "Roadway"
      },
      "geometry": {
        "type": "Point",
        "coordinates": [
          -74.001941025501,
          40.725680499115995
        ]
      }
    },
    {
      "type": "Feature",
      "properties": {
        "corridor_label_clean": "Sullivan St (Little Italy / SoHo)",
        "is_top_corridor": false,
        "license_type": "Roadway"
      },
      "geometry": {
        "type": "Point",
        "coordinates": [
          -74.002695082161,
          40.726053772095
        ]
      }
    },
    {
      "type": "Feature",
      "properties": {
        "corridor_label_clean": "Mott St (Little Italy / SoHo)",
        "is_top_corridor": false,
        "license_type": "Roadway"
      },
      "geometry": {
        "type": "Point",
        "coordinates": [
          -73.99554819684799,
          40.72137389000901
        ]
      }
    },
    {
      "type": "Feature",
      "properties": {
        "corridor_label_clean": "Lafayette St (Little Italy / SoHo)",
        "is_top_corridor": false,
        "license_type": "Roadway"
      },
      "geometry": {
        "type": "Point",
        "coordinates": [
          -73.997590095253,
          40.721774687105
        ]
      }
    },
    {
      "type": "Feature",
      "properties": {
        "corridor_label_clean": "Mulberry St (Little Italy / SoHo)",
        "is_top_corridor": true,
        "license_type": "Roadway"
      },
      "geometry": {
        "type": "Point",
        "coordinates": [
          -73.996175877837,
          40.72215342653699
        ]
      }
    },
    {
      "type": "Feature",
      "properties": {
        "corridor_label_clean": "Spring St (Little Italy / SoHo)",
        "is_top_corridor": false,
        "license_type": "Roadway"
      },
      "geometry": {
        "type": "Point",
        "coordinates": [
          -73.99810956926099,
          40.72270242811999
        ]
      }
    },
    {
      "type": "Feature",
      "properties": {
        "corridor_label_clean": "Mulberry St (Little Italy / SoHo)",
        "is_top_corridor": true,
        "license_type": "Roadway"
      },
      "geometry": {
        "type": "Point",
        "coordinates": [
          -73.99584392117498,
          40.722979589862014
        ]
      }
    },
    {
      "type": "Feature",
      "properties": {
        "corridor_label_clean": "Lafayette St (Little Italy / SoHo)",
        "is_top_corridor": false,
        "license_type": "Roadway"
      },
      "geometry": {
        "type": "Point",
        "coordinates": [
          -73.996590688538,
          40.72352582309901
        ]
      }
    },
    {
      "type": "Feature",
      "properties": {
        "corridor_label_clean": "West Houston St (Little Italy / SoHo)",
        "is_top_corridor": false,
        "license_type": "Roadway"
      },
      "geometry": {
        "type": "Point",
        "coordinates": [
          -74.00073962862099,
          40.727343841457
        ]
      }
    },
    {
      "type": "Feature",
      "properties": {
        "corridor_label_clean": "West Houston St (Little Italy / SoHo)",
        "is_top_corridor": false,
        "license_type": "Roadway"
      },
      "geometry": {
        "type": "Point",
        "coordinates": [
          -74.001270001449,
          40.727604589578014
        ]
      }
    },
    {
      "type": "Feature",
      "properties": {
        "corridor_label_clean": "Thompson St (Greenwich Village)",
        "is_top_corridor": false,
        "license_type": "Roadway"
      },
      "geometry": {
        "type": "Point",
        "coordinates": [
          -74.00033554037799,
          40.72764851237301
        ]
      }
    },
    {
      "type": "Feature",
      "properties": {
        "corridor_label_clean": "Thompson St (Greenwich Village)",
        "is_top_corridor": false,
        "license_type": "Roadway"
      },
      "geometry": {
        "type": "Point",
        "coordinates": [
          -74.00029224493,
          40.727667725853
        ]
      }
    },
    {
      "type": "Feature",
      "properties": {
        "corridor_label_clean": "Thompson St (Greenwich Village)",
        "is_top_corridor": false,
        "license_type": "Roadway"
      },
      "geometry": {
        "type": "Point",
        "coordinates": [
          -74.00020565425599,
          40.72780221957
        ]
      }
    },
    {
      "type": "Feature",
      "properties": {
        "corridor_label_clean": "Bleecker St (Greenwich Village)",
        "is_top_corridor": false,
        "license_type": "Roadway"
      },
      "geometry": {
        "type": "Point",
        "coordinates": [
          -73.999155730482,
          40.72817001527297
        ]
      }
    },
    {
      "type": "Feature",
      "properties": {
        "corridor_label_clean": "Bleecker St (Greenwich Village)",
        "is_top_corridor": false,
        "license_type": "Roadway"
      },
      "geometry": {
        "type": "Point",
        "coordinates": [
          -73.99935777693199,
          40.72826882815101
        ]
      }
    },
    {
      "type": "Feature",
      "properties": {
        "corridor_label_clean": "Bleecker St (Greenwich Village)",
        "is_top_corridor": false,
        "license_type": "Roadway"
      },
      "geometry": {
        "type": "Point",
        "coordinates": [
          -73.999458800383,
          40.72831823445598
        ]
      }
    },
    {
      "type": "Feature",
      "properties": {
        "corridor_label_clean": "LaGuardia Pl (Greenwich Village)",
        "is_top_corridor": false,
        "license_type": "Sidewalk"
      },
      "geometry": {
        "type": "Point",
        "coordinates": [
          -73.99832587693099,
          40.728804047051
        ]
      }
    },
    {
      "type": "Feature",
      "properties": {
        "corridor_label_clean": "LaGuardia Pl (Greenwich Village)",
        "is_top_corridor": false,
        "license_type": "Sidewalk"
      },
      "geometry": {
        "type": "Point",
        "coordinates": [
          -73.99832587693099,
          40.728804047051
        ]
      }
    },
    {
      "type": "Feature",
      "properties": {
        "corridor_label_clean": "Thompson St (Greenwich Village)",
        "is_top_corridor": false,
        "license_type": "Roadway"
      },
      "geometry": {
        "type": "Point",
        "coordinates": [
          -73.999173759804,
          40.729023637543996
        ]
      }
    },
    {
      "type": "Feature",
      "properties": {
        "corridor_label_clean": "West 3rd St (Greenwich Village)",
        "is_top_corridor": false,
        "license_type": "Roadway"
      },
      "geometry": {
        "type": "Point",
        "coordinates": [
          -73.99872274175802,
          40.72972903815698
        ]
      }
    },
    {
      "type": "Feature",
      "properties": {
        "corridor_label_clean": "Hudson St (Little Italy / SoHo)",
        "is_top_corridor": false,
        "license_type": "Roadway"
      },
      "geometry": {
        "type": "Point",
        "coordinates": [
          -74.007378210775,
          40.72702246891401
        ]
      }
    },
    {
      "type": "Feature",
      "properties": {
        "corridor_label_clean": "MacDougal St (Little Italy / SoHo)",
        "is_top_corridor": false,
        "license_type": "Sidewalk"
      },
      "geometry": {
        "type": "Point",
        "coordinates": [
          -74.002475061484,
          40.727653975692014
        ]
      }
    },
    {
      "type": "Feature",
      "properties": {
        "corridor_label_clean": "Carmine St (West Village)",
        "is_top_corridor": false,
        "license_type": "Roadway"
      },
      "geometry": {
        "type": "Point",
        "coordinates": [
          -74.00373797592499,
          40.72992660747601
        ]
      }
    },
    {
      "type": "Feature",
      "properties": {
        "corridor_label_clean": "Hudson St (West Village)",
        "is_top_corridor": false,
        "license_type": "Roadway"
      },
      "geometry": {
        "type": "Point",
        "coordinates": [
          -74.006808507658,
          40.730428758385
        ]
      }
    },
    {
      "type": "Feature",
      "properties": {
        "corridor_label_clean": "Hudson St (West Village)",
        "is_top_corridor": false,
        "license_type": "Roadway"
      },
      "geometry": {
        "type": "Point",
        "coordinates": [
          -74.00680129649601,
          40.73047816458901
        ]
      }
    },
    {
      "type": "Feature",
      "properties": {
        "corridor_label_clean": "Cornelia St (West Village)",
        "is_top_corridor": false,
        "license_type": "Roadway"
      },
      "geometry": {
        "type": "Point",
        "coordinates": [
          -74.00213242585998,
          40.73141156657301
        ]
      }
    },
    {
      "type": "Feature",
      "properties": {
        "corridor_label_clean": "Bleecker St (West Village)",
        "is_top_corridor": false,
        "license_type": "Sidewalk"
      },
      "geometry": {
        "type": "Point",
        "coordinates": [
          -74.003308706172,
          40.73177933719499
        ]
      }
    },
    {
      "type": "Feature",
      "properties": {
        "corridor_label_clean": "Washington St (West Village)",
        "is_top_corridor": false,
        "license_type": "Roadway"
      },
      "geometry": {
        "type": "Point",
        "coordinates": [
          -74.008612864661,
          40.73274796359299
        ]
      }
    },
    {
      "type": "Feature",
      "properties": {
        "corridor_label_clean": "Grove St (West Village)",
        "is_top_corridor": false,
        "license_type": "Roadway"
      },
      "geometry": {
        "type": "Point",
        "coordinates": [
          -74.004416484337,
          40.73275918097101
        ]
      }
    },
    {
      "type": "Feature",
      "properties": {
        "corridor_label_clean": "West 3rd St (Greenwich Village)",
        "is_top_corridor": false,
        "license_type": "Roadway"
      },
      "geometry": {
        "type": "Point",
        "coordinates": [
          -73.998784078515,
          40.729756486477996
        ]
      }
    },
    {
      "type": "Feature",
      "properties": {
        "corridor_label_clean": "MacDougal St (Greenwich Village)",
        "is_top_corridor": false,
        "license_type": "Roadway"
      },
      "geometry": {
        "type": "Point",
        "coordinates": [
          -74.0006999667,
          40.72975923555199
        ]
      }
    },
    {
      "type": "Feature",
      "properties": {
        "corridor_label_clean": "MacDougal St (Greenwich Village)",
        "is_top_corridor": false,
        "license_type": "Roadway"
      },
      "geometry": {
        "type": "Point",
        "coordinates": [
          -74.000321120881,
          40.730201144472
        ]
      }
    },
    {
      "type": "Feature",
      "properties": {
        "corridor_label_clean": "West 8th St (Greenwich Village)",
        "is_top_corridor": false,
        "license_type": "Roadway"
      },
      "geometry": {
        "type": "Point",
        "coordinates": [
          -73.99674538512,
          40.73242161374301
        ]
      }
    },
    {
      "type": "Feature",
      "properties": {
        "corridor_label_clean": "Greenwich Ave (West Village)",
        "is_top_corridor": false,
        "license_type": "Roadway"
      },
      "geometry": {
        "type": "Point",
        "coordinates": [
          -73.99963556144199,
          40.73393127993101
        ]
      }
    },
    {
      "type": "Feature",
      "properties": {
        "corridor_label_clean": "Charles St (West Village)",
        "is_top_corridor": false,
        "license_type": "Roadway"
      },
      "geometry": {
        "type": "Point",
        "coordinates": [
          -74.00064798723899,
          40.73513882268899
        ]
      }
    },
    {
      "type": "Feature",
      "properties": {
        "corridor_label_clean": "Greenwich Ave (West Village)",
        "is_top_corridor": false,
        "license_type": "Roadway"
      },
      "geometry": {
        "type": "Point",
        "coordinates": [
          -74.00042218068599,
          40.73539149439
        ]
      }
    },
    {
      "type": "Feature",
      "properties": {
        "corridor_label_clean": "West 13th St (Greenwich Village)",
        "is_top_corridor": false,
        "license_type": "Roadway"
      },
      "geometry": {
        "type": "Point",
        "coordinates": [
          -73.99538123942898,
          40.73584703304003
        ]
      }
    },
    {
      "type": "Feature",
      "properties": {
        "corridor_label_clean": "Christopher St (West Village)",
        "is_top_corridor": false,
        "license_type": "Roadway"
      },
      "geometry": {
        "type": "Point",
        "coordinates": [
          -74.004856728033,
          40.73328615801101
        ]
      }
    },
    {
      "type": "Feature",
      "properties": {
        "corridor_label_clean": "Bleecker St (West Village)",
        "is_top_corridor": false,
        "license_type": "Roadway"
      },
      "geometry": {
        "type": "Point",
        "coordinates": [
          -74.004351586061,
          40.73352222804701
        ]
      }
    },
    {
      "type": "Feature",
      "properties": {
        "corridor_label_clean": "Bleecker St (West Village)",
        "is_top_corridor": false,
        "license_type": "Roadway"
      },
      "geometry": {
        "type": "Point",
        "coordinates": [
          -74.004438197819,
          40.733717103017995
        ]
      }
    },
    {
      "type": "Feature",
      "properties": {
        "corridor_label_clean": "7th Ave South (West Village)",
        "is_top_corridor": false,
        "license_type": "Sidewalk"
      },
      "geometry": {
        "type": "Point",
        "coordinates": [
          -74.002803642154,
          40.73371989937699
        ]
      }
    },
    {
      "type": "Feature",
      "properties": {
        "corridor_label_clean": "West 10th St (West Village)",
        "is_top_corridor": false,
        "license_type": "Roadway"
      },
      "geometry": {
        "type": "Point",
        "coordinates": [
          -74.005675850751,
          40.73382409427601
        ]
      }
    },
    {
      "type": "Feature",
      "properties": {
        "corridor_label_clean": "Hudson St (West Village)",
        "is_top_corridor": false,
        "license_type": "Sidewalk"
      },
      "geometry": {
        "type": "Point",
        "coordinates": [
          -74.00625679376598,
          40.73390091746898
        ]
      }
    },
    {
      "type": "Feature",
      "properties": {
        "corridor_label_clean": "West 10th St (West Village)",
        "is_top_corridor": false,
        "license_type": "Roadway"
      },
      "geometry": {
        "type": "Point",
        "coordinates": [
          -74.005174303498,
          40.733900971404
        ]
      }
    },
    {
      "type": "Feature",
      "properties": {
        "corridor_label_clean": "West 4th St (West Village)",
        "is_top_corridor": false,
        "license_type": "Roadway"
      },
      "geometry": {
        "type": "Point",
        "coordinates": [
          -74.002940774604,
          40.734112397275005
        ]
      }
    },
    {
      "type": "Feature",
      "properties": {
        "corridor_label_clean": "Hudson St (West Village)",
        "is_top_corridor": false,
        "license_type": "Roadway"
      },
      "geometry": {
        "type": "Point",
        "coordinates": [
          -74.006108950432,
          40.734954914987014
        ]
      }
    },
    {
      "type": "Feature",
      "properties": {
        "corridor_label_clean": "Charles St (West Village)",
        "is_top_corridor": false,
        "license_type": "Sidewalk"
      },
      "geometry": {
        "type": "Point",
        "coordinates": [
          -74.002294917621,
          40.735007205214
        ]
      }
    },
    {
      "type": "Feature",
      "properties": {
        "corridor_label_clean": "Perry St (West Village)",
        "is_top_corridor": false,
        "license_type": "Sidewalk"
      },
      "geometry": {
        "type": "Point",
        "coordinates": [
          -74.00212173884,
          40.73571261295702
        ]
      }
    },
    {
      "type": "Feature",
      "properties": {
        "corridor_label_clean": "Hudson St (West Village)",
        "is_top_corridor": false,
        "license_type": "Roadway"
      },
      "geometry": {
        "type": "Point",
        "coordinates": [
          -74.005986336556,
          40.735734434497004
        ]
      }
    },
    {
      "type": "Feature",
      "properties": {
        "corridor_label_clean": "Bank St (West Village)",
        "is_top_corridor": false,
        "license_type": "Roadway"
      },
      "geometry": {
        "type": "Point",
        "coordinates": [
          -74.006502408016,
          40.73645078983201
        ]
      }
    },
    {
      "type": "Feature",
      "properties": {
        "corridor_label_clean": "Washington St (West Village)",
        "is_top_corridor": false,
        "license_type": "Roadway"
      },
      "geometry": {
        "type": "Point",
        "coordinates": [
          -74.008248940491,
          40.736834944495016
        ]
      }
    },
    {
      "type": "Feature",
      "properties": {
        "corridor_label_clean": "West 4th St (West Village)",
        "is_top_corridor": false,
        "license_type": "Roadway"
      },
      "geometry": {
        "type": "Point",
        "coordinates": [
          -74.003760024616,
          40.73699163098998
        ]
      }
    },
    {
      "type": "Feature",
      "properties": {
        "corridor_label_clean": "Washington St (West Village)",
        "is_top_corridor": false,
        "license_type": "Roadway"
      },
      "geometry": {
        "type": "Point",
        "coordinates": [
          -74.00820570750999,
          40.73738938989501
        ]
      }
    },
    {
      "type": "Feature",
      "properties": {
        "corridor_label_clean": "West 12th St (West Village)",
        "is_top_corridor": false,
        "license_type": "Roadway"
      },
      "geometry": {
        "type": "Point",
        "coordinates": [
          -74.00400904146498,
          40.737529596265986
        ]
      }
    },
    {
      "type": "Feature",
      "properties": {
        "corridor_label_clean": "Greenwich Ave (West Village)",
        "is_top_corridor": false,
        "license_type": "Sidewalk"
      },
      "geometry": {
        "type": "Point",
        "coordinates": [
          -74.00200273222002,
          40.738051153937
        ]
      }
    },
    {
      "type": "Feature",
      "properties": {
        "corridor_label_clean": "5th Ave (Greenwich Village)",
        "is_top_corridor": false,
        "license_type": "Sidewalk"
      },
      "geometry": {
        "type": "Point",
        "coordinates": [
          -73.993840463019,
          40.735704232923005
        ]
      }
    },
    {
      "type": "Feature",
      "properties": {
        "corridor_label_clean": "East 16th St (Midtown)",
        "is_top_corridor": false,
        "license_type": "Roadway"
      },
      "geometry": {
        "type": "Point",
        "coordinates": [
          -73.992151566806,
          40.737103959456014
        ]
      }
    },
    {
      "type": "Feature",
      "properties": {
        "corridor_label_clean": "East 18th St (Midtown)",
        "is_top_corridor": false,
        "license_type": "Sidewalk"
      },
      "geometry": {
        "type": "Point",
        "coordinates": [
          -73.989647208522,
          40.73759507350999
        ]
      }
    },
    {
      "type": "Feature",
      "properties": {
        "corridor_label_clean": "Park Ave South (Gramercy)",
        "is_top_corridor": false,
        "license_type": "Roadway"
      },
      "geometry": {
        "type": "Point",
        "coordinates": [
          -73.987799541633,
          40.738215208484995
        ]
      }
    },
    {
      "type": "Feature",
      "properties": {
        "corridor_label_clean": "East 20th St (Midtown)",
        "is_top_corridor": false,
        "license_type": "Roadway"
      },
      "geometry": {
        "type": "Point",
        "coordinates": [
          -73.989026339753,
          40.738843883246986
        ]
      }
    },
    {
      "type": "Feature",
      "properties": {
        "corridor_label_clean": "East 20th St (Midtown)",
        "is_top_corridor": false,
        "license_type": "Roadway"
      },
      "geometry": {
        "type": "Point",
        "coordinates": [
          -73.98904798618898,
          40.738874077713
        ]
      }
    },
    {
      "type": "Feature",
      "properties": {
        "corridor_label_clean": "5th Ave (Midtown)",
        "is_top_corridor": false,
        "license_type": "Roadway"
      },
      "geometry": {
        "type": "Point",
        "coordinates": [
          -73.991505417587,
          40.738918202208005
        ]
      }
    },
    {
      "type": "Feature",
      "properties": {
        "corridor_label_clean": "West 25th St (Midtown)",
        "is_top_corridor": false,
        "license_type": "Sidewalk"
      },
      "geometry": {
        "type": "Point",
        "coordinates": [
          -73.98912304964598,
          40.743246492273
        ]
      }
    },
    {
      "type": "Feature",
      "properties": {
        "corridor_label_clean": "Greenwich Ave (West Village)",
        "is_top_corridor": false,
        "license_type": "Roadway"
      },
      "geometry": {
        "type": "Point",
        "coordinates": [
          -74.001818688643,
          40.737732764415995
        ]
      }
    },
    {
      "type": "Feature",
      "properties": {
        "corridor_label_clean": "6th Ave (Chelsea)",
        "is_top_corridor": false,
        "license_type": "Sidewalk"
      },
      "geometry": {
        "type": "Point",
        "coordinates": [
          -73.99563361880999,
          40.739025479376984
        ]
      }
    },
    {
      "type": "Feature",
      "properties": {
        "corridor_label_clean": "West 16th St (Chelsea)",
        "is_top_corridor": false,
        "license_type": "Roadway"
      },
      "geometry": {
        "type": "Point",
        "coordinates": [
          -73.99999639134498,
          40.740406178389016
        ]
      }
    },
    {
      "type": "Feature",
      "properties": {
        "corridor_label_clean": "8th Ave (Chelsea)",
        "is_top_corridor": false,
        "license_type": "Sidewalk"
      },
      "geometry": {
        "type": "Point",
        "coordinates": [
          -74.001833203947,
          40.740675150523984
        ]
      }
    },
    {
      "type": "Feature",
      "properties": {
        "corridor_label_clean": "8th Ave (Chelsea)",
        "is_top_corridor": false,
        "license_type": "Roadway"
      },
      "geometry": {
        "type": "Point",
        "coordinates": [
          -74.001688862208,
          40.740872775677
        ]
      }
    },
    {
      "type": "Feature",
      "properties": {
        "corridor_label_clean": "West 19th St (Chelsea)",
        "is_top_corridor": false,
        "license_type": "Sidewalk"
      },
      "geometry": {
        "type": "Point",
        "coordinates": [
          -73.995918576079,
          40.740985250791
        ]
      }
    },
    {
      "type": "Feature",
      "properties": {
        "corridor_label_clean": "West 19th St (Chelsea)",
        "is_top_corridor": false,
        "license_type": "Roadway"
      },
      "geometry": {
        "type": "Point",
        "coordinates": [
          -73.997798674471,
          40.741800496846004
        ]
      }
    },
    {
      "type": "Feature",
      "properties": {
        "corridor_label_clean": "7th Ave (Chelsea)",
        "is_top_corridor": false,
        "license_type": "Sidewalk"
      },
      "geometry": {
        "type": "Point",
        "coordinates": [
          -73.99721405369898,
          40.74195419085401
        ]
      }
    },
    {
      "type": "Feature",
      "properties": {
        "corridor_label_clean": "8th Ave (Chelsea)",
        "is_top_corridor": false,
        "license_type": "Roadway"
      },
      "geometry": {
        "type": "Point",
        "coordinates": [
          -74.000927445893,
          40.741956965693994
        ]
      }
    },
    {
      "type": "Feature",
      "properties": {
        "corridor_label_clean": "8th Ave (Chelsea)",
        "is_top_corridor": false,
        "license_type": "Sidewalk"
      },
      "geometry": {
        "type": "Point",
        "coordinates": [
          -74.000757837422,
          40.74215458985602
        ]
      }
    },
    {
      "type": "Feature",
      "properties": {
        "corridor_label_clean": "Greenwich Ave (West Village)",
        "is_top_corridor": false,
        "license_type": "Roadway"
      },
      "geometry": {
        "type": "Point",
        "coordinates": [
          -74.00215429995498,
          40.73834758566001
        ]
      }
    },
    {
      "type": "Feature",
      "properties": {
        "corridor_label_clean": "Greenwich Ave (West Village)",
        "is_top_corridor": false,
        "license_type": "Roadway"
      },
      "geometry": {
        "type": "Point",
        "coordinates": [
          -74.00222647504398,
          40.738473843406
        ]
      }
    },
    {
      "type": "Feature",
      "properties": {
        "corridor_label_clean": "Greenwich Ave (West Village)",
        "is_top_corridor": false,
        "license_type": "Roadway"
      },
      "geometry": {
        "type": "Point",
        "coordinates": [
          -74.00222647504398,
          40.738473843406
        ]
      }
    },
    {
      "type": "Feature",
      "properties": {
        "corridor_label_clean": "10th Ave (Chelsea)",
        "is_top_corridor": false,
        "license_type": "Sidewalk"
      },
      "geometry": {
        "type": "Point",
        "coordinates": [
          -74.004850496297,
          40.746762945522995
        ]
      }
    },
    {
      "type": "Feature",
      "properties": {
        "corridor_label_clean": "West 26th St (Chelsea)",
        "is_top_corridor": false,
        "license_type": "Sidewalk"
      },
      "geometry": {
        "type": "Point",
        "coordinates": [
          -74.005955224,
          40.750926696186994
        ]
      }
    },
    {
      "type": "Feature",
      "properties": {
        "corridor_label_clean": "8th Ave (Chelsea)",
        "is_top_corridor": false,
        "license_type": "Roadway"
      },
      "geometry": {
        "type": "Point",
        "coordinates": [
          -74.00037170416299,
          40.74268158618401
        ]
      }
    },
    {
      "type": "Feature",
      "properties": {
        "corridor_label_clean": "West 21st St (Chelsea)",
        "is_top_corridor": false,
        "license_type": "Sidewalk"
      },
      "geometry": {
        "type": "Point",
        "coordinates": [
          -73.996889220771,
          40.742945041819
        ]
      }
    },
    {
      "type": "Feature",
      "properties": {
        "corridor_label_clean": "8th Ave (Chelsea)",
        "is_top_corridor": false,
        "license_type": "Sidewalk"
      },
      "geometry": {
        "type": "Point",
        "coordinates": [
          -73.99908334540999,
          40.744484892006
        ]
      }
    },
    {
      "type": "Feature",
      "properties": {
        "corridor_label_clean": "West 24th St (Chelsea)",
        "is_top_corridor": false,
        "license_type": "Roadway"
      },
      "geometry": {
        "type": "Point",
        "coordinates": [
          -74.000808421099,
          40.747177504204004
        ]
      }
    },
    {
      "type": "Feature",
      "properties": {
        "corridor_label_clean": "2nd Ave (Midtown)",
        "is_top_corridor": false,
        "license_type": "Sidewalk"
      },
      "geometry": {
        "type": "Point",
        "coordinates": [
          -73.968948258633,
          40.754268512125
        ]
      }
    },
    {
      "type": "Feature",
      "properties": {
        "corridor_label_clean": "East 49th St (Midtown)",
        "is_top_corridor": false,
        "license_type": "Roadway"
      },
      "geometry": {
        "type": "Point",
        "coordinates": [
          -73.970662429017,
          40.75494417413199
        ]
      }
    },
    {
      "type": "Feature",
      "properties": {
        "corridor_label_clean": "East 48th St (Midtown)",
        "is_top_corridor": false,
        "license_type": "Roadway"
      },
      "geometry": {
        "type": "Point",
        "coordinates": [
          -73.972773917182,
          40.75503527161099
        ]
      }
    },
    {
      "type": "Feature",
      "properties": {
        "corridor_label_clean": "2nd Ave (Midtown)",
        "is_top_corridor": false,
        "license_type": "Roadway"
      },
      "geometry": {
        "type": "Point",
        "coordinates": [
          -73.968337869203,
          40.755105497113995
        ]
      }
    },
    {
      "type": "Feature",
      "properties": {
        "corridor_label_clean": "East 68th St (Upper East Side)",
        "is_top_corridor": false,
        "license_type": "Sidewalk"
      },
      "geometry": {
        "type": "Point",
        "coordinates": [
          -73.95889259662398,
          40.765678057521
        ]
      }
    },
    {
      "type": "Feature",
      "properties": {
        "corridor_label_clean": "East 75th St (Upper East Side)",
        "is_top_corridor": false,
        "license_type": "Sidewalk"
      },
      "geometry": {
        "type": "Point",
        "coordinates": [
          -73.95251852516799,
          40.76898851930501
        ]
      }
    },
    {
      "type": "Feature",
      "properties": {
        "corridor_label_clean": "York Ave (Upper East Side)",
        "is_top_corridor": false,
        "license_type": "Sidewalk"
      },
      "geometry": {
        "type": "Point",
        "coordinates": [
          -73.951676828726,
          40.76969905997801
        ]
      }
    },
    {
      "type": "Feature",
      "properties": {
        "corridor_label_clean": "2nd Ave (Upper East Side)",
        "is_top_corridor": true,
        "license_type": "Roadway"
      },
      "geometry": {
        "type": "Point",
        "coordinates": [
          -73.95751803521699,
          40.769973101491985
        ]
      }
    },
    {
      "type": "Feature",
      "properties": {
        "corridor_label_clean": "2nd Ave (Upper East Side)",
        "is_top_corridor": true,
        "license_type": "Sidewalk"
      },
      "geometry": {
        "type": "Point",
        "coordinates": [
          -73.95614128043898,
          40.77185548637201
        ]
      }
    },
    {
      "type": "Feature",
      "properties": {
        "corridor_label_clean": "3rd Ave (Upper East Side)",
        "is_top_corridor": false,
        "license_type": "Roadway"
      },
      "geometry": {
        "type": "Point",
        "coordinates": [
          -73.95751909699702,
          40.773952997869
        ]
      }
    },
    {
      "type": "Feature",
      "properties": {
        "corridor_label_clean": "East 51st St (Midtown)",
        "is_top_corridor": false,
        "license_type": "Roadway"
      },
      "geometry": {
        "type": "Point",
        "coordinates": [
          -73.96927591414,
          40.755997799020996
        ]
      }
    },
    {
      "type": "Feature",
      "properties": {
        "corridor_label_clean": "1st Ave (Midtown)",
        "is_top_corridor": false,
        "license_type": "Sidewalk"
      },
      "geometry": {
        "type": "Point",
        "coordinates": [
          -73.964402931569,
          40.75628459061599
        ]
      }
    },
    {
      "type": "Feature",
      "properties": {
        "corridor_label_clean": "1st Ave (Upper East Side)",
        "is_top_corridor": false,
        "license_type": "Sidewalk"
      },
      "geometry": {
        "type": "Point",
        "coordinates": [
          -73.96082661174499,
          40.761191054722005
        ]
      }
    },
    {
      "type": "Feature",
      "properties": {
        "corridor_label_clean": "1st Ave (Upper East Side)",
        "is_top_corridor": false,
        "license_type": "Roadway"
      },
      "geometry": {
        "type": "Point",
        "coordinates": [
          -73.96050147296098,
          40.761624615108985
        ]
      }
    },
    {
      "type": "Feature",
      "properties": {
        "corridor_label_clean": "2nd Ave (Upper East Side)",
        "is_top_corridor": true,
        "license_type": "Sidewalk"
      },
      "geometry": {
        "type": "Point",
        "coordinates": [
          -73.96358423417199,
          40.76165308230299
        ]
      }
    },
    {
      "type": "Feature",
      "properties": {
        "corridor_label_clean": "East 60th St (Upper East Side)",
        "is_top_corridor": false,
        "license_type": "Roadway"
      },
      "geometry": {
        "type": "Point",
        "coordinates": [
          -73.968781590753,
          40.763290489621
        ]
      }
    },
    {
      "type": "Feature",
      "properties": {
        "corridor_label_clean": "East 61st St (Upper East Side)",
        "is_top_corridor": false,
        "license_type": "Sidewalk"
      },
      "geometry": {
        "type": "Point",
        "coordinates": [
          -73.967662348156,
          40.76364699822499
        ]
      }
    },
    {
      "type": "Feature",
      "properties": {
        "corridor_label_clean": "2nd Ave (Upper East Side)",
        "is_top_corridor": true,
        "license_type": "Sidewalk"
      },
      "geometry": {
        "type": "Point",
        "coordinates": [
          -73.961864623756,
          40.763985568121
        ]
      }
    },
    {
      "type": "Feature",
      "properties": {
        "corridor_label_clean": "East 60th St (Upper East Side)",
        "is_top_corridor": false,
        "license_type": "Roadway"
      },
      "geometry": {
        "type": "Point",
        "coordinates": [
          -73.970495974227,
          40.764007324938
        ]
      }
    },
    {
      "type": "Feature",
      "properties": {
        "corridor_label_clean": "York Ave (Upper East Side)",
        "is_top_corridor": false,
        "license_type": "Roadway"
      },
      "geometry": {
        "type": "Point",
        "coordinates": [
          -73.94826513578998,
          40.774338955264014
        ]
      }
    },
    {
      "type": "Feature",
      "properties": {
        "corridor_label_clean": "York Ave (Upper East Side)",
        "is_top_corridor": false,
        "license_type": "Roadway"
      },
      "geometry": {
        "type": "Point",
        "coordinates": [
          -73.94826513578998,
          40.774338955264014
        ]
      }
    },
    {
      "type": "Feature",
      "properties": {
        "corridor_label_clean": "York Ave (Upper East Side)",
        "is_top_corridor": false,
        "license_type": "Sidewalk"
      },
      "geometry": {
        "type": "Point",
        "coordinates": [
          -73.947491621968,
          40.77543376138198
        ]
      }
    },
    {
      "type": "Feature",
      "properties": {
        "corridor_label_clean": "York Ave (Upper East Side)",
        "is_top_corridor": false,
        "license_type": "Sidewalk"
      },
      "geometry": {
        "type": "Point",
        "coordinates": [
          -73.947491621968,
          40.77543376138198
        ]
      }
    },
    {
      "type": "Feature",
      "properties": {
        "corridor_label_clean": "2nd Ave (Upper East Side)",
        "is_top_corridor": true,
        "license_type": "Roadway"
      },
      "geometry": {
        "type": "Point",
        "coordinates": [
          -73.95401277583701,
          40.774739391413
        ]
      }
    },
    {
      "type": "Feature",
      "properties": {
        "corridor_label_clean": "East 81st St (Upper East Side)",
        "is_top_corridor": false,
        "license_type": "Sidewalk"
      },
      "geometry": {
        "type": "Point",
        "coordinates": [
          -73.95709179819198,
          40.77590435981101
        ]
      }
    },
    {
      "type": "Feature",
      "properties": {
        "corridor_label_clean": "2nd Ave (Upper East Side)",
        "is_top_corridor": true,
        "license_type": "Sidewalk"
      },
      "geometry": {
        "type": "Point",
        "coordinates": [
          -73.95260687884398,
          40.77670406410899
        ]
      }
    },
    {
      "type": "Feature",
      "properties": {
        "corridor_label_clean": "2nd Ave (Upper East Side)",
        "is_top_corridor": true,
        "license_type": "Sidewalk"
      },
      "geometry": {
        "type": "Point",
        "coordinates": [
          -73.95199971924,
          40.77749704591099
        ]
      }
    },
    {
      "type": "Feature",
      "properties": {
        "corridor_label_clean": "East 84th St (Upper East Side)",
        "is_top_corridor": false,
        "license_type": "Roadway"
      },
      "geometry": {
        "type": "Point",
        "coordinates": [
          -73.956028919778,
          40.777965268287
        ]
      }
    },
    {
      "type": "Feature",
      "properties": {
        "corridor_label_clean": "2nd Ave (Upper East Side)",
        "is_top_corridor": true,
        "license_type": "Roadway"
      },
      "geometry": {
        "type": "Point",
        "coordinates": [
          -73.95048526607599,
          40.77961535294501
        ]
      }
    },
    {
      "type": "Feature",
      "properties": {
        "corridor_label_clean": "3rd Ave (Upper East Side)",
        "is_top_corridor": false,
        "license_type": "Roadway"
      },
      "geometry": {
        "type": "Point",
        "coordinates": [
          -73.95297628307299,
          40.780217501487
        ]
      }
    },
    {
      "type": "Feature",
      "properties": {
        "corridor_label_clean": "Lexington Ave (Upper East Side)",
        "is_top_corridor": false,
        "license_type": "Roadway"
      },
      "geometry": {
        "type": "Point",
        "coordinates": [
          -73.954933246791,
          40.780366503147
        ]
      }
    },
    {
      "type": "Feature",
      "properties": {
        "corridor_label_clean": "East 88th St (Upper East Side)",
        "is_top_corridor": false,
        "license_type": "Roadway"
      },
      "geometry": {
        "type": "Point",
        "coordinates": [
          -73.95398349809298,
          40.780511598307996
        ]
      }
    },
    {
      "type": "Feature",
      "properties": {
        "corridor_label_clean": "Lexington Ave (Upper East Side)",
        "is_top_corridor": false,
        "license_type": "Sidewalk"
      },
      "geometry": {
        "type": "Point",
        "coordinates": [
          -73.953581500572,
          40.78221867313599
        ]
      }
    },
    {
      "type": "Feature",
      "properties": {
        "corridor_label_clean": "East 91st St (Upper East Side)",
        "is_top_corridor": false,
        "license_type": "Roadway"
      },
      "geometry": {
        "type": "Point",
        "coordinates": [
          -73.957068332628,
          40.784267615779015
        ]
      }
    },
    {
      "type": "Feature",
      "properties": {
        "corridor_label_clean": "Madison Ave (Upper East Side)",
        "is_top_corridor": false,
        "license_type": "Sidewalk"
      },
      "geometry": {
        "type": "Point",
        "coordinates": [
          -73.95580762231,
          40.784953325549004
        ]
      }
    },
    {
      "type": "Feature",
      "properties": {
        "corridor_label_clean": "Amsterdam Ave (Hamilton Heights-Sugar Hill)",
        "is_top_corridor": false,
        "license_type": "Roadway"
      },
      "geometry": {
        "type": "Point",
        "coordinates": [
          -73.950475789991,
          40.82132454480799
        ]
      }
    },
    {
      "type": "Feature",
      "properties": {
        "corridor_label_clean": "Amsterdam Ave (Upper West Side)",
        "is_top_corridor": true,
        "license_type": "Roadway"
      },
      "geometry": {
        "type": "Point",
        "coordinates": [
          -73.96561443277598,
          40.800579800343
        ]
      }
    },
    {
      "type": "Feature",
      "properties": {
        "corridor_label_clean": "Amsterdam Ave (Upper West Side)",
        "is_top_corridor": true,
        "license_type": "Sidewalk"
      },
      "geometry": {
        "type": "Point",
        "coordinates": [
          -73.963937246851,
          40.80287938456701
        ]
      }
    },
    {
      "type": "Feature",
      "properties": {
        "corridor_label_clean": "Amsterdam Ave (Morningside Heights)",
        "is_top_corridor": false,
        "license_type": "Roadway"
      },
      "geometry": {
        "type": "Point",
        "coordinates": [
          -73.961124830344,
          40.806696410041006
        ]
      }
    },
    {
      "type": "Feature",
      "properties": {
        "corridor_label_clean": "La Salle St (Morningside Heights)",
        "is_top_corridor": false,
        "license_type": "Roadway"
      },
      "geometry": {
        "type": "Point",
        "coordinates": [
          -73.960361854501,
          40.814057556570006
        ]
      }
    },
    {
      "type": "Feature",
      "properties": {
        "corridor_label_clean": "West 25th St (Midtown)",
        "is_top_corridor": false,
        "license_type": "Roadway"
      },
      "geometry": {
        "type": "Point",
        "coordinates": [
          -73.98996388511999,
          40.74335910416799
        ]
      }
    },
    {
      "type": "Feature",
      "properties": {
        "corridor_label_clean": "5th Ave (Midtown)",
        "is_top_corridor": false,
        "license_type": "Sidewalk"
      },
      "geometry": {
        "type": "Point",
        "coordinates": [
          -73.987636037808,
          40.74422622182699
        ]
      }
    },
    {
      "type": "Feature",
      "properties": {
        "corridor_label_clean": "West 26th St (Midtown)",
        "is_top_corridor": false,
        "license_type": "Roadway"
      },
      "geometry": {
        "type": "Point",
        "coordinates": [
          -73.9908983996,
          40.744588835620974
        ]
      }
    },
    {
      "type": "Feature",
      "properties": {
        "corridor_label_clean": "West 31st St (Midtown)",
        "is_top_corridor": false,
        "license_type": "Roadway"
      },
      "geometry": {
        "type": "Point",
        "coordinates": [
          -73.987732913442,
          40.747275662702
        ]
      }
    },
    {
      "type": "Feature",
      "properties": {
        "corridor_label_clean": "West 33rd St (Midtown)",
        "is_top_corridor": false,
        "license_type": "Roadway"
      },
      "geometry": {
        "type": "Point",
        "coordinates": [
          -73.989320514772,
          40.749581420927
        ]
      }
    },
    {
      "type": "Feature",
      "properties": {
        "corridor_label_clean": "9th Ave (Hell's Kitchen)",
        "is_top_corridor": false,
        "license_type": "Sidewalk"
      },
      "geometry": {
        "type": "Point",
        "coordinates": [
          -73.992062322346,
          40.759188302860004
        ]
      }
    },
    {
      "type": "Feature",
      "properties": {
        "corridor_label_clean": "West 46th St (Hell's Kitchen)",
        "is_top_corridor": false,
        "license_type": "Roadway"
      },
      "geometry": {
        "type": "Point",
        "coordinates": [
          -73.989167180685,
          40.760299693312
        ]
      }
    },
    {
      "type": "Feature",
      "properties": {
        "corridor_label_clean": "West 47th St (Hell's Kitchen)",
        "is_top_corridor": false,
        "license_type": "Roadway"
      },
      "geometry": {
        "type": "Point",
        "coordinates": [
          -73.988015613768,
          40.760637184115
        ]
      }
    },
    {
      "type": "Feature",
      "properties": {
        "corridor_label_clean": "West 47th St (Hell's Kitchen)",
        "is_top_corridor": false,
        "license_type": "Sidewalk"
      },
      "geometry": {
        "type": "Point",
        "coordinates": [
          -73.992134140048,
          40.762358503663
        ]
      }
    },
    {
      "type": "Feature",
      "properties": {
        "corridor_label_clean": "10th Ave (Hell's Kitchen)",
        "is_top_corridor": false,
        "license_type": "Sidewalk"
      },
      "geometry": {
        "type": "Point",
        "coordinates": [
          -73.99317373378,
          40.762773028647025
        ]
      }
    },
    {
      "type": "Feature",
      "properties": {
        "corridor_label_clean": "West 40th St (Midtown)",
        "is_top_corridor": false,
        "license_type": "Roadway"
      },
      "geometry": {
        "type": "Point",
        "coordinates": [
          -73.982289137444,
          40.752377462210006
        ]
      }
    },
    {
      "type": "Feature",
      "properties": {
        "corridor_label_clean": "West 44th St (Midtown)",
        "is_top_corridor": false,
        "license_type": "Roadway"
      },
      "geometry": {
        "type": "Point",
        "coordinates": [
          -73.984558382743,
          40.75670902107301
        ]
      }
    },
    {
      "type": "Feature",
      "properties": {
        "corridor_label_clean": "West 44th St (Midtown)",
        "is_top_corridor": false,
        "license_type": "Roadway"
      },
      "geometry": {
        "type": "Point",
        "coordinates": [
          -73.98618975195,
          40.75739816357002
        ]
      }
    },
    {
      "type": "Feature",
      "properties": {
        "corridor_label_clean": "West 46th St (Midtown)",
        "is_top_corridor": false,
        "license_type": "Roadway"
      },
      "geometry": {
        "type": "Point",
        "coordinates": [
          -73.98366651056499,
          40.757990700134
        ]
      }
    },
    {
      "type": "Feature",
      "properties": {
        "corridor_label_clean": "West 47th St (Midtown)",
        "is_top_corridor": false,
        "license_type": "Roadway"
      },
      "geometry": {
        "type": "Point",
        "coordinates": [
          -73.98655740126999,
          40.760002983368004
        ]
      }
    },
    {
      "type": "Feature",
      "properties": {
        "corridor_label_clean": "7th Ave (Midtown)",
        "is_top_corridor": false,
        "license_type": "Sidewalk"
      },
      "geometry": {
        "type": "Point",
        "coordinates": [
          -73.983875315042,
          40.760266134670985
        ]
      }
    },
    {
      "type": "Feature",
      "properties": {
        "corridor_label_clean": "West 48th St (Midtown)",
        "is_top_corridor": false,
        "license_type": "Roadway"
      },
      "geometry": {
        "type": "Point",
        "coordinates": [
          -73.985622390329,
          40.76043379711601
        ]
      }
    },
    {
      "type": "Feature",
      "properties": {
        "corridor_label_clean": "West 48th St (Midtown)",
        "is_top_corridor": false,
        "license_type": "Roadway"
      },
      "geometry": {
        "type": "Point",
        "coordinates": [
          -73.985849784284,
          40.760527147165995
        ]
      }
    },
    {
      "type": "Feature",
      "properties": {
        "corridor_label_clean": "West 49th St (Midtown)",
        "is_top_corridor": false,
        "license_type": "Roadway"
      },
      "geometry": {
        "type": "Point",
        "coordinates": [
          -73.983990757676,
          40.76055160571098
        ]
      }
    },
    {
      "type": "Feature",
      "properties": {
        "corridor_label_clean": "East 41st St (Midtown)",
        "is_top_corridor": false,
        "license_type": "Roadway"
      },
      "geometry": {
        "type": "Point",
        "coordinates": [
          -73.980448381945,
          40.75241010045199
        ]
      }
    },
    {
      "type": "Feature",
      "properties": {
        "corridor_label_clean": "Park Ave (Midtown)",
        "is_top_corridor": false,
        "license_type": "Roadway"
      },
      "geometry": {
        "type": "Point",
        "coordinates": [
          -73.975950427165,
          40.75450075314
        ]
      }
    },
    {
      "type": "Feature",
      "properties": {
        "corridor_label_clean": "West 44th St (Midtown)",
        "is_top_corridor": false,
        "license_type": "Roadway"
      },
      "geometry": {
        "type": "Point",
        "coordinates": [
          -73.98083017402001,
          40.755160414448
        ]
      }
    },
    {
      "type": "Feature",
      "properties": {
        "corridor_label_clean": "West 46th St (Midtown)",
        "is_top_corridor": false,
        "license_type": "Roadway"
      },
      "geometry": {
        "type": "Point",
        "coordinates": [
          -73.979985181942,
          40.75641737006599
        ]
      }
    },
    {
      "type": "Feature",
      "properties": {
        "corridor_label_clean": "West 48th St (Midtown)",
        "is_top_corridor": false,
        "license_type": "Roadway"
      },
      "geometry": {
        "type": "Point",
        "coordinates": [
          -73.980396131806,
          40.75823172684602
        ]
      }
    },
    {
      "type": "Feature",
      "properties": {
        "corridor_label_clean": "West 54th St (Midtown)",
        "is_top_corridor": false,
        "license_type": "Sidewalk"
      },
      "geometry": {
        "type": "Point",
        "coordinates": [
          -73.980726745472,
          40.763298606810004
        ]
      }
    },
    {
      "type": "Feature",
      "properties": {
        "corridor_label_clean": "West 58th St (Midtown)",
        "is_top_corridor": false,
        "license_type": "Roadway"
      },
      "geometry": {
        "type": "Point",
        "coordinates": [
          -73.975188764417,
          40.764354274867
        ]
      }
    },
    {
      "type": "Feature",
      "properties": {
        "corridor_label_clean": "West 56th St (Midtown)",
        "is_top_corridor": false,
        "license_type": "Roadway"
      },
      "geometry": {
        "type": "Point",
        "coordinates": [
          -73.979892475195,
          40.76456379692998
        ]
      }
    },
    {
      "type": "Feature",
      "properties": {
        "corridor_label_clean": "Central Park South (Midtown)",
        "is_top_corridor": false,
        "license_type": "Sidewalk"
      },
      "geometry": {
        "type": "Point",
        "coordinates": [
          -73.974870813753,
          40.765078821657
        ]
      }
    },
    {
      "type": "Feature",
      "properties": {
        "corridor_label_clean": "8th Ave (Hell's Kitchen)",
        "is_top_corridor": false,
        "license_type": "Roadway"
      },
      "geometry": {
        "type": "Point",
        "coordinates": [
          -73.986784542496,
          40.761364409897
        ]
      }
    },
    {
      "type": "Feature",
      "properties": {
        "corridor_label_clean": "West 51st St (Midtown)",
        "is_top_corridor": false,
        "license_type": "Roadway"
      },
      "geometry": {
        "type": "Point",
        "coordinates": [
          -73.98458592074199,
          40.76247027315502
        ]
      }
    },
    {
      "type": "Feature",
      "properties": {
        "corridor_label_clean": "West 51st St (Hell's Kitchen)",
        "is_top_corridor": false,
        "license_type": "Roadway"
      },
      "geometry": {
        "type": "Point",
        "coordinates": [
          -73.98595754696899,
          40.763030379787004
        ]
      }
    },
    {
      "type": "Feature",
      "properties": {
        "corridor_label_clean": "Broadway (Midtown)",
        "is_top_corridor": false,
        "license_type": "Roadway"
      },
      "geometry": {
        "type": "Point",
        "coordinates": [
          -73.98266516474798,
          40.76366945826099
        ]
      }
    },
    {
      "type": "Feature",
      "properties": {
        "corridor_label_clean": "9th Ave (Hell's Kitchen)",
        "is_top_corridor": false,
        "license_type": "Sidewalk"
      },
      "geometry": {
        "type": "Point",
        "coordinates": [
          -73.98750212226999,
          40.765448689729965
        ]
      }
    },
    {
      "type": "Feature",
      "properties": {
        "corridor_label_clean": "West 56th St (Midtown)",
        "is_top_corridor": false,
        "license_type": "Roadway"
      },
      "geometry": {
        "type": "Point",
        "coordinates": [
          -73.982498583522,
          40.76565938209901
        ]
      }
    },
    {
      "type": "Feature",
      "properties": {
        "corridor_label_clean": "9th Ave (Hell's Kitchen)",
        "is_top_corridor": false,
        "license_type": "Roadway"
      },
      "geometry": {
        "type": "Point",
        "coordinates": [
          -73.986314085955,
          40.76710089791401
        ]
      }
    },
    {
      "type": "Feature",
      "properties": {
        "corridor_label_clean": "West 58th St (Hell's Kitchen)",
        "is_top_corridor": false,
        "license_type": "Roadway"
      },
      "geometry": {
        "type": "Point",
        "coordinates": [
          -73.98293489425,
          40.767613714727005
        ]
      }
    },
    {
      "type": "Feature",
      "properties": {
        "corridor_label_clean": "9th Ave (Hell's Kitchen)",
        "is_top_corridor": false,
        "license_type": "Roadway"
      },
      "geometry": {
        "type": "Point",
        "coordinates": [
          -73.988401226584,
          40.76424658040601
        ]
      }
    },
    {
      "type": "Feature",
      "properties": {
        "corridor_label_clean": "West 52nd St (Hell's Kitchen)",
        "is_top_corridor": false,
        "license_type": "Roadway"
      },
      "geometry": {
        "type": "Point",
        "coordinates": [
          -73.98845525931699,
          40.76491630665801
        ]
      }
    },
    {
      "type": "Feature",
      "properties": {
        "corridor_label_clean": "10th Ave (Hell's Kitchen)",
        "is_top_corridor": false,
        "license_type": "Roadway"
      },
      "geometry": {
        "type": "Point",
        "coordinates": [
          -73.990779929652,
          40.76608029399401
        ]
      }
    },
    {
      "type": "Feature",
      "properties": {
        "corridor_label_clean": "10th Ave (Hell's Kitchen)",
        "is_top_corridor": false,
        "license_type": "Sidewalk"
      },
      "geometry": {
        "type": "Point",
        "coordinates": [
          -73.989635303786,
          40.76761451540099
        ]
      }
    },
    {
      "type": "Feature",
      "properties": {
        "corridor_label_clean": "West 58th St (Hell's Kitchen)",
        "is_top_corridor": false,
        "license_type": "Roadway"
      },
      "geometry": {
        "type": "Point",
        "coordinates": [
          -73.98298543049998,
          40.767635680283
        ]
      }
    },
    {
      "type": "Feature",
      "properties": {
        "corridor_label_clean": "9th Ave (Hell's Kitchen)",
        "is_top_corridor": false,
        "license_type": "Roadway"
      },
      "geometry": {
        "type": "Point",
        "coordinates": [
          -73.98543295358898,
          40.76831397189399
        ]
      }
    },
    {
      "type": "Feature",
      "properties": {
        "corridor_label_clean": "West 63rd St (Upper West Side)",
        "is_top_corridor": false,
        "license_type": "Roadway"
      },
      "geometry": {
        "type": "Point",
        "coordinates": [
          -73.98241400830298,
          40.771486487081
        ]
      }
    },
    {
      "type": "Feature",
      "properties": {
        "corridor_label_clean": "West 70th St (Upper West Side)",
        "is_top_corridor": false,
        "license_type": "Roadway"
      },
      "geometry": {
        "type": "Point",
        "coordinates": [
          -73.98267603822198,
          40.77732736547902
        ]
      }
    },
    {
      "type": "Feature",
      "properties": {
        "corridor_label_clean": "Columbus Ave (Upper West Side)",
        "is_top_corridor": true,
        "license_type": "Roadway"
      },
      "geometry": {
        "type": "Point",
        "coordinates": [
          -73.981286872189,
          40.77399776003501
        ]
      }
    },
    {
      "type": "Feature",
      "properties": {
        "corridor_label_clean": "Columbus Ave (Upper West Side)",
        "is_top_corridor": true,
        "license_type": "Roadway"
      },
      "geometry": {
        "type": "Point",
        "coordinates": [
          -73.981037659502,
          40.774310621209
        ]
      }
    },
    {
      "type": "Feature",
      "properties": {
        "corridor_label_clean": "Columbus Ave (Upper West Side)",
        "is_top_corridor": true,
        "license_type": "Sidewalk"
      },
      "geometry": {
        "type": "Point",
        "coordinates": [
          -73.980373055668,
          40.77523000237802
        ]
      }
    },